[
  {"id":"T01","name":"Sir Ahmed Raza","subjects":["Math","Physics"],"sector":"G-13","lat":33.642,"lng":72.985,"rating":4.8,"reviews":124,"reviewRecencyDays":4,"onTimeScore":0.95,"hourlyRate":1200,"experienceYears":8,"specialization":"O/A Levels","cancellationRate":0.03,"availableSlots":["Tomorrow 4PM","Tomorrow 6PM","Tomorrow 8PM"],"riskScore":0.05,"completedJobs":210},
  {"id":"T02","name":"Miss Sana Tariq","subjects":["Math","Chemistry"],"sector":"F-11","lat":33.685,"lng":72.998,"rating":4.6,"reviews":89,"reviewRecencyDays":12,"onTimeScore":0.88,"hourlyRate":900,"experienceYears":5,"specialization":"Matric/FSc","cancellationRate":0.08,"availableSlots":["Tomorrow 5PM","Tomorrow 7PM"],"riskScore":0.12,"completedJobs":140},
  {"id":"T03","name":"Sir Bilal Khan","subjects":["English","Math"],"sector":"G-13","lat":33.640,"lng":72.982,"rating":4.3,"reviews":45,"reviewRecencyDays":30,"onTimeScore":0.79,"hourlyRate":700,"experienceYears":3,"specialization":"Primary/Middle","cancellationRate":0.15,"availableSlots":["Tomorrow 6PM"],"riskScore":0.22,"completedJobs":60},
  {"id":"T04","name":"Dr. Ayesha Malik","subjects":["Physics","Math"],"sector":"I-8","lat":33.668,"lng":73.075,"rating":4.9,"reviews":201,"reviewRecencyDays":2,"onTimeScore":0.97,"hourlyRate":2000,"experienceYears":12,"specialization":"University/Engineering Prep","cancellationRate":0.02,"availableSlots":["Tomorrow 8PM"],"riskScore":0.03,"completedJobs":340},
  {"id":"T05","name":"Sir Usman Sheikh","subjects":["Computer Science","Math"],"sector":"F-11","lat":33.687,"lng":72.995,"rating":4.5,"reviews":67,"reviewRecencyDays":8,"onTimeScore":0.85,"hourlyRate":1100,"experienceYears":6,"specialization":"O/A Levels CS","cancellationRate":0.09,"availableSlots":["Tomorrow 4PM","Tomorrow 7PM"],"riskScore":0.10,"completedJobs":115},
  {"id":"T06","name":"Miss Hina Javed","subjects":["English","Urdu"],"sector":"G-13","lat":33.643,"lng":72.987,"rating":4.7,"reviews":98,"reviewRecencyDays":6,"onTimeScore":0.92,"hourlyRate":800,"experienceYears":7,"specialization":"Matric/FSc","cancellationRate":0.05,"availableSlots":["Tomorrow 5PM","Tomorrow 6PM","Tomorrow 8PM"],"riskScore":0.06,"completedJobs":170}
]
